{
  "years": [
    1990,
    1995,
    2000,
    2005,
    2010,
    2015,
    2020
  ],
  "singapore": {
    "lon": 103.8198,
    "lat": 1.3521
  },
  "countries": [
    {
      "m49": 50,
      "name": "Bangladesh",
      "iso3": "BGD",
      "continent": "Asia",
      "lon": 90.3563,
      "lat": 23.685,
      "stock": [
        8818,
        18587,
        30155,
        47991,
        68502,
        78584,
        79857
      ],
      "delta": [
        null,
        9769,
        11568,
        17836,
        20511,
        10082,
        1273
      ]
    },
    {
      "m49": 156,
      "name": "China",
      "iso3": "CHN",
      "continent": "Asia",
      "lon": 104.1954,
      "lat": 35.8617,
      "stock": [
        150447,
        191075,
        250198,
        299651,
        365797,
        419634,
        426434
      ],
      "delta": [
        null,
        40628,
        59123,
        49453,
        66146,
        53837,
        6800
      ]
    },
    {
      "m49": 344,
      "name": "Hong Kong SAR",
      "iso3": "HKG",
      "continent": "Asia",
      "lon": 114.1694,
      "lat": 22.3193,
      "stock": [
        15043,
        31708,
        51442,
        52509,
        56502,
        64817,
        65867
      ],
      "delta": [
        null,
        16665,
        19734,
        1067,
        3993,
        8315,
        1050
      ]
    },
    {
      "m49": 446,
      "name": "Macao SAR",
      "iso3": "MAC",
      "continent": "Asia",
      "lon": 113.5439,
      "lat": 22.1987,
      "stock": [
        11755,
        10309,
        9861,
        13897,
        18709,
        21462,
        21809
      ],
      "delta": [
        null,
        -1446,
        -448,
        4036,
        4812,
        2753,
        347
      ]
    },
    {
      "m49": 356,
      "name": "India",
      "iso3": "IND",
      "continent": "Asia",
      "lon": 78.9629,
      "lat": 20.5937,
      "stock": [
        14109,
        29739,
        48248,
        83963,
        124357,
        142659,
        144970
      ],
      "delta": [
        null,
        15630,
        18509,
        35715,
        40394,
        18302,
        2311
      ]
    },
    {
      "m49": 144,
      "name": "Sri Lanka",
      "iso3": "LKA",
      "continent": "Asia",
      "lon": 80.7718,
      "lat": 7.8731,
      "stock": [
        5788,
        5078,
        4860,
        6850,
        9222,
        10587,
        10767
      ],
      "delta": [
        null,
        -710,
        -218,
        1990,
        2372,
        1365,
        180
      ]
    },
    {
      "m49": 360,
      "name": "Indonesia",
      "iso3": "IDN",
      "continent": "Asia",
      "lon": 113.9213,
      "lat": -0.7893,
      "stock": [
        21520,
        34241,
        50277,
        91090,
        136979,
        157139,
        159685
      ],
      "delta": [
        null,
        12721,
        16036,
        40813,
        45889,
        20160,
        2546
      ]
    },
    {
      "m49": 458,
      "name": "Malaysia",
      "iso3": "MYS",
      "continent": "Asia",
      "lon": 101.9758,
      "lat": 4.2105,
      "stock": [
        195072,
        431854,
        710434,
        818337,
        971827,
        1114858,
        1132924
      ],
      "delta": [
        null,
        236782,
        278580,
        107903,
        153490,
        143031,
        18066
      ]
    },
    {
      "m49": 586,
      "name": "Pakistan",
      "iso3": "PAK",
      "continent": "Asia",
      "lon": 69.3451,
      "lat": 30.3753,
      "stock": [
        12345,
        26021,
        42217,
        73468,
        108812,
        124826,
        126848
      ],
      "delta": [
        null,
        13676,
        16196,
        31251,
        35344,
        16014,
        2022
      ]
    },
    {
      "m49": 608,
      "name": "Philippines",
      "iso3": "PHL",
      "continent": "Asia",
      "lon": 121.774,
      "lat": 12.8797,
      "stock": [
        1175,
        2480,
        4027,
        8195,
        12820,
        14706,
        14944
      ],
      "delta": [
        null,
        1305,
        1547,
        4168,
        4625,
        1886,
        238
      ]
    },
    {
      "m49": 764,
      "name": "Thailand",
      "iso3": "THA",
      "continent": "Asia",
      "lon": 100.9925,
      "lat": 15.87,
      "stock": [
        1438,
        3032,
        4921,
        10010,
        15658,
        17962,
        18253
      ],
      "delta": [
        null,
        1594,
        1889,
        5089,
        5648,
        2304,
        291
      ]
    },
    {
      "m49": 840,
      "name": "United States",
      "iso3": "USA",
      "continent": "Americas",
      "lon": -95.7129,
      "lat": 37.0902,
      "stock": [
        3423,
        3949,
        4858,
        9340,
        14344,
        16455,
        16721
      ],
      "delta": [
        null,
        526,
        909,
        4482,
        5004,
        2111,
        266
      ]
    },
    {
      "m49": 124,
      "name": "Canada",
      "iso3": "CAN",
      "continent": "Americas",
      "lon": -106.3468,
      "lat": 56.1304,
      "stock": [
        717,
        816,
        996,
        2339,
        3814,
        4375,
        4445
      ],
      "delta": [
        null,
        99,
        180,
        1343,
        1475,
        561,
        70
      ]
    },
    {
      "m49": 36,
      "name": "Australia",
      "iso3": "AUS",
      "continent": "Oceania",
      "lon": 133.7751,
      "lat": -25.2744,
      "stock": [
        2913,
        3577,
        4588,
        6466,
        8706,
        9987,
        10148
      ],
      "delta": [
        null,
        664,
        1011,
        1878,
        2240,
        1281,
        161
      ]
    },
    {
      "m49": 554,
      "name": "New Zealand",
      "iso3": "NZL",
      "continent": "Oceania",
      "lon": 174.886,
      "lat": -40.9006,
      "stock": [
        1131,
        1389,
        1783,
        2514,
        3386,
        3884,
        3946
      ],
      "delta": [
        null,
        258,
        394,
        731,
        872,
        498,
        62
      ]
    }
  ]
}